{"message":"csiro.ningaloo_deep_reefs.3017.metadata","data":{"project":".Ningaloo Deep Reefs","vessel":"RV Linnaeus","voyage_number":"LI2019_V05","principal_investigator":"Russ Babcock","camera_system":"Hobart Shallow Video","field_instrumentation":"Karl Forcey","transducer_offset_in_dpt_string?":"0.7","measured_transducer_offset":""},"timestamp":"2019-03-30T03:16:12.430Z"}
{"message":"linnaeus.tappity.keystroke.eng","data":{"keytype":"substrate","keyname":"Sand"},"timestamp":"2019-03-30T03:16:12.593Z"}
{"message":"linnaeus.tappity.keystroke.raw","data":{"keystroke":"3"},"}timestamp":"2019-03-30T03:16:12.593Z"}
{"message":"linnaeus.tappity.current_trio.eng","data":{"substrate":"Sand","benthic":"Burrowing Animals","animal":""},"timestamp":"2019-03-30T03:16:12.593Z"}
{"message":"linnaeus.furuno.gps.eng","data":{"values":{"latitude":"-22.644245","longitude":"113.532126","utm_zone":"49","sog":"1.55","cog":"43.23"},"units":{"latitude":"decimal_degrees","longitude":"decimal_degrees","utm_zone":"number","sog":"knots","cog":"degrees"}},"timestamp":"2019-03-30T03:16:13.428Z"}
{"message":"linnaeus.furuno.gps.raw","data":"$GPRMC,031613.00,A,2238.65472199,S,11331.92757611,E,1.55,43.23,300319,0.4,E,A,S*6B","timestamp":"2019-03-30T03:16:13.428Z"}
{"message":"linnaeus.furuno.sounder.eng","data":{"values":{"depth":"213.90"},"units":{"depth":"metres"}},"timestamp":"2019-03-30T03:16:13.502Z"}
{"message":"linnaeus.furuno.sounder.raw","data":"$SDDPT,0213.2,000.7*62","timestamp":"2019-03-30T03:16:13.502Z"}
{"message":"linnaeus.furuno.gps.eng","data":{"values":{"latitude":"-22.644241","longitude":"113.532134","utm_zone":"49","sog":"1.70","cog":"58.75"},"units":{"latitude":"decimal_degrees","longitude":"decimal_degrees","utm_zone":"number","sog":"knots","cog":"degrees"}},"timestamp":"2019-03-30T03:16:14.426Z"}
{"message":"linnaeus.furuno.gps.raw","data":"$GPRMC,031614.00,A,2238.65445471,S,11331.92805580,E,1.70,58.75,300319,0.4,E,A,S*66","timestamp":"2019-03-30T03:16:14.426Z"}
{"message":"linnaeus.furuno.gps.eng","data":{"values":{"latitude":"-22.644236","longitude":"113.532139","utm_zone":"49","sog":"1.35","cog":"19.33"},"units":{"latitude":"decimal_degrees","longitude":"decimal_degrees","utm_zone":"number","sog":"knots","cog":"degrees"}},"timestamp":"2019-03-30T03:16:15.426Z"}
{"message":"linnaeus.furuno.gps.raw","data":"$GPRMC,031615.00,A,2238.65415181,S,11331.92834156,E,1.35,19.33,300319,0.4,E,A,S*63","timestamp":"2019-03-30T03:16:15.426Z"}
{"message":"linnaeus.furuno.sounder.eng","data":{"values":{"depth":"214.30"},"units":{"depth":"metres"}},"timestamp":"2019-03-30T03:16:15.496Z"}
{"message":"linnaeus.furuno.sounder.raw","data":"$SDDPT,0213.6,000.7*66","timestamp":"2019-03-30T03:16:15.496Z"}
{"message":"linnaeus.furuno.gps.eng","data":{"values":{"latitude":"-22.644230","longitude":"113.532141","utm_zone":"49","sog":"1.04","cog":"22.05"},"units":{"latitude":"decimal_degrees","longitude":"decimal_degrees","utm_zone":"number","sog":"knots","cog":"degrees"}},"timestamp":"2019-03-30T03:16:16.426Z"}
{"message":"linnaeus.furuno.gps.raw","data":"$GPRMC,031616.00,A,2238.65382498,S,11331.92844335,E,1.04,22.05,300319,0.4,E,A,S*6B","timestamp":"2019-03-30T03:16:16.426Z"}
{"message":"linnaeus.furuno.gps.eng","data":{"values":{"latitude":"-22.644227","longitude":"113.532143","utm_zone":"49","sog":"0.60","cog":"55.15"},"units":{"latitude":"decimal_degrees","longitude":"decimal_degrees","utm_zone":"number","sog":"knots","cog":"degrees"}},"timestamp":"2019-03-30T03:16:17.427Z"}
{"message":"linnaeus.furuno.gps.raw","data":"$GPRMC,031617.00,A,2238.65364706,S,11331.92857074,E,0.60,55.15,300319,0.4,E,A,S*60","timestamp":"2019-03-30T03:16:17.427Z"}
{"message":"linnaeus.furuno.sounder.eng","data":{"values":{"depth":"214.20"},"units":{"depth":"metres"}},"timestamp":"2019-03-30T03:16:17.496Z"}
{"message":"linnaeus.furuno.sounder.raw","data":"$SDDPT,0213.5,000.7*65","timestamp":"2019-03-30T03:16:17.496Z"}
{"message":"linnaeus.furuno.gps.eng","data":{"values":{"latitude":"-22.644226","longitude":"113.532146","utm_zone":"49","sog":"0.97","cog":"54.61"},"units":{"latitude":"decimal_degrees","longitude":"decimal_degrees","utm_zone":"number","sog":"knots","cog":"degrees"}},"timestamp":"2019-03-30T03:16:18.425Z"}
{"message":"linnaeus.furuno.gps.raw","data":"$GPRMC,031618.00,A,2238.65354878,S,11331.92876837,E,0.97,54.61,300319,0.4,E,A,S*6C","timestamp":"2019-03-30T03:16:18.425Z"}
{"message":"linnaeus.furuno.gps.eng","data":{"values":{"latitude":"-22.644222","longitude":"113.532149","utm_zone":"49","sog":"1.11","cog":"37.75"},"units":{"latitude":"decimal_degrees","longitude":"decimal_degrees","utm_zone":"number","sog":"knots","cog":"degrees"}},"timestamp":"2019-03-30T03:16:19.432Z"}
{"message":"linnaeus.furuno.gps.raw","data":"$GPRMC,031619.00,A,2238.65334741,S,11331.92895490,E,1.11,37.75,300319,0.4,E,A,S*6D","timestamp":"2019-03-30T03:16:19.432Z"}
{"message":"linnaeus.furuno.sounder.eng","data":{"values":{"depth":"214.00"},"units":{"depth":"metres"}},"timestamp":"2019-03-30T03:16:19.498Z"}
{"message":"linnaeus.furuno.sounder.raw","data":"$SDDPT,0213.3,000.7*63","timestamp":"2019-03-30T03:16:19.498Z"}
{"message":"linnaeus.tappity.keystroke.eng","data":{"keytype":"substrate","keyname":"Silt (Sandy Mud)"},"timestamp":"2019-03-30T03:16:19.986Z"}
{"message":"linnaeus.tappity.keystroke.raw","data":{"keystroke":"2"},"}timestamp":"2019-03-30T03:16:19.986Z"}
{"message":"linnaeus.tappity.current_trio.eng","data":{"substrate":"Silt (Sandy Mud)","benthic":"Burrowing Animals","animal":""},"timestamp":"2019-03-30T03:16:19.986Z"}
{"message":"linnaeus.furuno.gps.eng","data":{"values":{"latitude":"-22.644218","longitude":"113.532153","utm_zone":"49","sog":"1.04","cog":"28.39"},"units":{"latitude":"decimal_degrees","longitude":"decimal_degrees","utm_zone":"number","sog":"knots","cog":"degrees"}},"timestamp":"2019-03-30T03:16:20.426Z"}
{"message":"linnaeus.furuno.gps.raw","data":"$GPRMC,031620.00,A,2238.65309611,S,11331.92917219,E,1.04,28.39,300319,0.4,E,A,S*63","timestamp":"2019-03-30T03:16:20.426Z"}
{"message":"linnaeus.furuno.gps.eng","data":{"values":{"latitude":"-22.644213","longitude":"113.532155","utm_zone":"49","sog":"1.09","cog":"33.22"},"units":{"latitude":"decimal_degrees","longitude":"decimal_degrees","utm_zone":"number","sog":"knots","cog":"degrees"}},"timestamp":"2019-03-30T03:16:21.426Z"}
{"message":"linnaeus.furuno.gps.raw","data":"$GPRMC,031621.00,A,2238.65280357,S,11331.92927941,E,1.09,33.22,300319,0.4,E,A,S*6D","timestamp":"2019-03-30T03:16:21.426Z"}
{"message":"linnaeus.furuno.sounder.eng","data":{"values":{"depth":"214.40"},"units":{"depth":"metres"}},"timestamp":"2019-03-30T03:16:21.500Z"}
{"message":"linnaeus.furuno.sounder.raw","data":"$SDDPT,0213.7,000.7*67","timestamp":"2019-03-30T03:16:21.500Z"}
{"message":"linnaeus.furuno.gps.eng","data":{"values":{"latitude":"-22.644210","longitude":"113.532161","utm_zone":"49","sog":"1.62","cog":"75.94"},"units":{"latitude":"decimal_degrees","longitude":"decimal_degrees","utm_zone":"number","sog":"knots","cog":"degrees"}},"timestamp":"2019-03-30T03:16:22.427Z"}
{"message":"linnaeus.furuno.gps.raw","data":"$GPRMC,031622.00,A,2238.65262574,S,11331.92967524,E,1.62,75.94,300319,0.4,E,A,S*6C","timestamp":"2019-03-30T03:16:22.427Z"}
{"message":"linnaeus.furuno.gps.eng","data":{"values":{"latitude":"-22.644207","longitude":"113.532165","utm_zone":"49","sog":"1.02","cog":"336.64"},"units":{"latitude":"decimal_degrees","longitude":"decimal_degrees","utm_zone":"number","sog":"knots","cog":"degrees"}},"timestamp":"2019-03-30T03:16:23.428Z"}
{"message":"linnaeus.furuno.gps.raw","data":"$GPRMC,031623.00,A,2238.65243452,S,11331.92988229,E,1.02,336.64,300319,0.4,E,A,S*5D","timestamp":"2019-03-30T03:16:23.428Z"}
{"message":"linnaeus.furuno.sounder.eng","data":{"values":{"depth":"214.50"},"units":{"depth":"metres"}},"timestamp":"2019-03-30T03:16:23.497Z"}
{"message":"linnaeus.furuno.sounder.raw","data":"$SDDPT,0213.8,000.7*68","timestamp":"2019-03-30T03:16:23.497Z"}
{"message":"linnaeus.tappity.keystroke.eng","data":{"keytype":"substrate","keyname":"Sand"},"timestamp":"2019-03-30T03:16:23.713Z"}
{"message":"linnaeus.tappity.keystroke.raw","data":{"keystroke":"3"},"}timestamp":"2019-03-30T03:16:23.713Z"}
{"message":"linnaeus.tappity.current_trio.eng","data":{"substrate":"Sand","benthic":"Burrowing Animals","animal":""},"timestamp":"2019-03-30T03:16:23.713Z"}
{"message":"linnaeus.furuno.gps.eng","data":{"values":{"latitude":"-22.644204","longitude":"113.532162","utm_zone":"49","sog":"0.39","cog":"352.78"},"units":{"latitude":"decimal_degrees","longitude":"decimal_degrees","utm_zone":"number","sog":"knots","cog":"degrees"}},"timestamp":"2019-03-30T03:16:24.434Z"}
{"message":"linnaeus.furuno.gps.raw","data":"$GPRMC,031624.00,A,2238.65221428,S,11331.92972072,E,0.39,352.78,300319,0.4,E,A,S*5C","timestamp":"2019-03-30T03:16:24.434Z"}
{"message":"linnaeus.furuno.gps.eng","data":{"values":{"latitude":"-22.644204","longitude":"113.532166","utm_zone":"49","sog":"1.23","cog":"91.54"},"units":{"latitude":"decimal_degrees","longitude":"decimal_degrees","utm_zone":"number","sog":"knots","cog":"degrees"}},"timestamp":"2019-03-30T03:16:25.426Z"}
{"message":"linnaeus.furuno.gps.raw","data":"$GPRMC,031625.00,A,2238.65224197,S,11331.92998422,E,1.23,91.54,300319,0.4,E,A,S*64","timestamp":"2019-03-30T03:16:25.426Z"}
{"message":"linnaeus.furuno.sounder.eng","data":{"values":{"depth":"213.90"},"units":{"depth":"metres"}},"timestamp":"2019-03-30T03:16:25.499Z"}
{"message":"linnaeus.furuno.sounder.raw","data":"$SDDPT,0213.2,000.7*62","timestamp":"2019-03-30T03:16:25.499Z"}
{"message":"linnaeus.tappity.keystroke.eng","data":{"keytype":"benthic","keyname":"Burrowing Animals"},"timestamp":"2019-03-30T03:16:26.178Z"}
{"message":"linnaeus.tappity.keystroke.raw","data":{"keystroke":"m"},"}timestamp":"2019-03-30T03:16:26.178Z"}
{"message":"linnaeus.tappity.current_trio.eng","data":{"substrate":"Sand","benthic":"Burrowing Animals","animal":""},"timestamp":"2019-03-30T03:16:26.178Z"}
{"message":"linnaeus.furuno.gps.eng","data":{"values":{"latitude":"-22.644202","longitude":"113.532169","utm_zone":"49","sog":"0.83","cog":"351.32"},"units":{"latitude":"decimal_degrees","longitude":"decimal_degrees","utm_zone":"number","sog":"knots","cog":"degrees"}},"timestamp":"2019-03-30T03:16:26.426Z"}
{"message":"linnaeus.furuno.gps.raw","data":"$GPRMC,031626.00,A,2238.65212911,S,11331.93015535,E,0.83,351.32,300319,0.4,E,A,S*5A","timestamp":"2019-03-30T03:16:26.426Z"}
{"message":"linnaeus.furuno.gps.eng","data":{"values":{"latitude":"-22.644199","longitude":"113.532167","utm_zone":"49","sog":"0.61","cog":"325.49"},"units":{"latitude":"decimal_degrees","longitude":"decimal_degrees","utm_zone":"number","sog":"knots","cog":"degrees"}},"timestamp":"2019-03-30T03:16:27.431Z"}
{"message":"linnaeus.furuno.gps.raw","data":"$GPRMC,031627.00,A,2238.65191461,S,11331.93000133,E,0.61,325.49,300319,0.4,E,A,S*5C","timestamp":"2019-03-30T03:16:27.431Z"}
{"message":"linnaeus.furuno.sounder.eng","data":{"values":{"depth":"213.70"},"units":{"depth":"metres"}},"timestamp":"2019-03-30T03:16:27.505Z"}
{"message":"linnaeus.furuno.sounder.raw","data":"$SDDPT,0213.0,000.7*60","timestamp":"2019-03-30T03:16:27.505Z"}
{"message":"linnaeus.furuno.gps.eng","data":{"values":{"latitude":"-22.644198","longitude":"113.532170","utm_zone":"49","sog":"1.46","cog":"79.36"},"units":{"latitude":"decimal_degrees","longitude":"decimal_degrees","utm_zone":"number","sog":"knots","cog":"degrees"}},"timestamp":"2019-03-30T03:16:28.425Z"}
{"message":"linnaeus.furuno.gps.raw","data":"$GPRMC,031628.00,A,2238.65185084,S,11331.93018230,E,1.46,79.36,300319,0.4,E,A,S*66","timestamp":"2019-03-30T03:16:28.425Z"}
{"message":"linnaeus.furuno.gps.eng","data":{"values":{"latitude":"-22.644194","longitude":"113.532174","utm_zone":"49","sog":"1.32","cog":"357.30"},"units":{"latitude":"decimal_degrees","longitude":"decimal_degrees","utm_zone":"number","sog":"knots","cog":"degrees"}},"timestamp":"2019-03-30T03:16:29.430Z"}
{"message":"linnaeus.furuno.gps.raw","data":"$GPRMC,031629.00,A,2238.65163538,S,11331.93044143,E,1.32,357.30,300319,0.4,E,A,S*59","timestamp":"2019-03-30T03:16:29.430Z"}
{"message":"linnaeus.furuno.sounder.eng","data":{"values":{"depth":"213.90"},"units":{"depth":"metres"}},"timestamp":"2019-03-30T03:16:29.499Z"}
{"message":"linnaeus.furuno.sounder.raw","data":"$SDDPT,0213.2,000.7*62","timestamp":"2019-03-30T03:16:29.499Z"}
{"message":"linnaeus.furuno.gps.eng","data":{"values":{"latitude":"-22.644189","longitude":"113.532173","utm_zone":"49","sog":"0.94","cog":"8.35"},"units":{"latitude":"decimal_degrees","longitude":"decimal_degrees","utm_zone":"number","sog":"knots","cog":"degrees"}},"timestamp":"2019-03-30T03:16:30.424Z"}
{"message":"linnaeus.furuno.gps.raw","data":"$GPRMC,031630.00,A,2238.65131552,S,11331.93036538,E,0.94,8.35,300319,0.4,E,A,S*56","timestamp":"2019-03-30T03:16:30.424Z"}
{"message":"linnaeus.furuno.gps.eng","data":{"values":{"latitude":"-22.644185","longitude":"113.532178","utm_zone":"49","sog":"1.61","cog":"67.51"},"units":{"latitude":"decimal_degrees","longitude":"decimal_degrees","utm_zone":"number","sog":"knots","cog":"degrees"}},"timestamp":"2019-03-30T03:16:31.425Z"}
{"message":"linnaeus.furuno.gps.raw","data":"$GPRMC,031631.00,A,2238.65110209,S,11331.93066109,E,1.61,67.51,300319,0.4,E,A,S*6E","timestamp":"2019-03-30T03:16:31.425Z"}
{"message":"linnaeus.furuno.sounder.eng","data":{"values":{"depth":"214.20"},"units":{"depth":"metres"}},"timestamp":"2019-03-30T03:16:31.499Z"}
{"message":"linnaeus.furuno.sounder.raw","data":"$SDDPT,0213.5,000.7*65","timestamp":"2019-03-30T03:16:31.499Z"}
{"message":"linnaeus.furuno.gps.eng","data":{"values":{"latitude":"-22.644183","longitude":"113.532182","utm_zone":"49","sog":"0.58","cog":"8.81"},"units":{"latitude":"decimal_degrees","longitude":"decimal_degrees","utm_zone":"number","sog":"knots","cog":"degrees"}},"timestamp":"2019-03-30T03:16:32.424Z"}
{"message":"linnaeus.furuno.gps.raw","data":"$GPRMC,031632.00,A,2238.65095405,S,11331.93094873,E,0.58,8.81,300319,0.4,E,A,S*5D","timestamp":"2019-03-30T03:16:32.424Z"}
{"message":"linnaeus.furuno.gps.eng","data":{"values":{"latitude":"-22.644179","longitude":"113.532182","utm_zone":"49","sog":"0.76","cog":"34.60"},"units":{"latitude":"decimal_degrees","longitude":"decimal_degrees","utm_zone":"number","sog":"knots","cog":"degrees"}},"timestamp":"2019-03-30T03:16:33.426Z"}
{"message":"linnaeus.furuno.gps.raw","data":"$GPRMC,031633.00,A,2238.65075572,S,11331.93094670,E,0.76,34.60,300319,0.4,E,A,S*62","timestamp":"2019-03-30T03:16:33.426Z"}
{"message":"linnaeus.furuno.sounder.eng","data":{"values":{"depth":"214.60"},"units":{"depth":"metres"}},"timestamp":"2019-03-30T03:16:33.505Z"}
{"message":"linnaeus.furuno.sounder.raw","data":"$SDDPT,0213.9,000.7*69","timestamp":"2019-03-30T03:16:33.505Z"}
{"message":"linnaeus.furuno.gps.eng","data":{"values":{"latitude":"-22.644177","longitude":"113.532188","utm_zone":"49","sog":"1.55","cog":"75.34"},"units":{"latitude":"decimal_degrees","longitude":"decimal_degrees","utm_zone":"number","sog":"knots","cog":"degrees"}},"timestamp":"2019-03-30T03:16:34.427Z"}
{"message":"linnaeus.furuno.gps.raw","data":"$GPRMC,031634.00,A,2238.65061101,S,11331.93129108,E,1.55,75.34,300319,0.4,E,A,S*6B","timestamp":"2019-03-30T03:16:34.427Z"}
{"message":"linnaeus.furuno.gps.eng","data":{"values":{"latitude":"-22.644174","longitude":"113.532194","utm_zone":"49","sog":"0.94","cog":"28.51"},"units":{"latitude":"decimal_degrees","longitude":"decimal_degrees","utm_zone":"number","sog":"knots","cog":"degrees"}},"timestamp":"2019-03-30T03:16:35.427Z"}
{"message":"linnaeus.furuno.gps.raw","data":"$GPRMC,031635.00,A,2238.65045226,S,11331.93161215,E,0.94,28.51,300319,0.4,E,A,S*6E","timestamp":"2019-03-30T03:16:35.427Z"}
{"message":"linnaeus.furuno.sounder.eng","data":{"values":{"depth":"214.40"},"units":{"depth":"metres"}},"timestamp":"2019-03-30T03:16:35.500Z"}
{"message":"linnaeus.furuno.sounder.raw","data":"$SDDPT,0213.7,000.7*67","timestamp":"2019-03-30T03:16:35.500Z"}
{"message":"linnaeus.furuno.gps.eng","data":{"values":{"latitude":"-22.644170","longitude":"113.532194","utm_zone":"49","sog":"0.99","cog":"356.66"},"units":{"latitude":"decimal_degrees","longitude":"decimal_degrees","utm_zone":"number","sog":"knots","cog":"degrees"}},"timestamp":"2019-03-30T03:16:36.434Z"}
{"message":"linnaeus.furuno.gps.raw","data":"$GPRMC,031636.00,A,2238.65017317,S,11331.93161964,E,0.99,356.66,300319,0.4,E,A,S*57","timestamp":"2019-03-30T03:16:36.434Z"}
{"message":"linnaeus.furuno.gps.eng","data":{"values":{"latitude":"-22.644166","longitude":"113.532195","utm_zone":"49","sog":"0.56","cog":"46.44"},"units":{"latitude":"decimal_degrees","longitude":"decimal_degrees","utm_zone":"number","sog":"knots","cog":"degrees"}},"timestamp":"2019-03-30T03:16:37.426Z"}
{"message":"linnaeus.furuno.gps.raw","data":"$GPRMC,031637.00,A,2238.64998324,S,11331.93170210,E,0.56,46.44,300319,0.4,E,A,S*60","timestamp":"2019-03-30T03:16:37.426Z"}
{"message":"linnaeus.furuno.sounder.eng","data":{"values":{"depth":"214.40"},"units":{"depth":"metres"}},"timestamp":"2019-03-30T03:16:37.501Z"}
{"message":"linnaeus.furuno.sounder.raw","data":"$SDDPT,0213.7,000.7*67","timestamp":"2019-03-30T03:16:37.501Z"}
{"message":"linnaeus.furuno.gps.eng","data":{"values":{"latitude":"-22.644166","longitude":"113.532197","utm_zone":"49","sog":"0.43","cog":"113.70"},"units":{"latitude":"decimal_degrees","longitude":"decimal_degrees","utm_zone":"number","sog":"knots","cog":"degrees"}},"timestamp":"2019-03-30T03:16:38.427Z"}
{"message":"linnaeus.furuno.gps.raw","data":"$GPRMC,031638.00,A,2238.64994459,S,11331.93179353,E,0.43,113.70,300319,0.4,E,A,S*53","timestamp":"2019-03-30T03:16:38.427Z"}
{"message":"linnaeus.furuno.gps.eng","data":{"values":{"latitude":"-22.644167","longitude":"113.532197","utm_zone":"49","sog":"0.33","cog":"269.87"},"units":{"latitude":"decimal_degrees","longitude":"decimal_degrees","utm_zone":"number","sog":"knots","cog":"degrees"}},"timestamp":"2019-03-30T03:16:39.426Z"}
{"message":"linnaeus.furuno.gps.raw","data":"$GPRMC,031639.00,A,2238.65000056,S,11331.93184424,E,0.33,269.87,300319,0.4,E,A,S*58","timestamp":"2019-03-30T03:16:39.426Z"}
{"message":"linnaeus.furuno.sounder.eng","data":{"values":{"depth":"213.80"},"units":{"depth":"metres"}},"timestamp":"2019-03-30T03:16:39.502Z"}
{"message":"linnaeus.furuno.sounder.raw","data":"$SDDPT,0213.1,000.7*61","timestamp":"2019-03-30T03:16:39.502Z"}
{"message":"linnaeus.furuno.gps.eng","data":{"values":{"latitude":"-22.644165","longitude":"113.532195","utm_zone":"49","sog":"0.67","cog":"7.34"},"units":{"latitude":"decimal_degrees","longitude":"decimal_degrees","utm_zone":"number","sog":"knots","cog":"degrees"}},"timestamp":"2019-03-30T03:16:40.425Z"}
{"message":"linnaeus.furuno.gps.raw","data":"$GPRMC,031640.00,A,2238.64988320,S,11331.93172547,E,0.67,7.34,300319,0.4,E,A,S*52","timestamp":"2019-03-30T03:16:40.425Z"}
{"message":"linnaeus.furuno.gps.eng","data":{"values":{"latitude":"-22.644162","longitude":"113.532200","utm_zone":"49","sog":"1.43","cog":"69.89"},"units":{"latitude":"decimal_degrees","longitude":"decimal_degrees","utm_zone":"number","sog":"knots","cog":"degrees"}},"timestamp":"2019-03-30T03:16:41.428Z"}
{"message":"linnaeus.furuno.gps.raw","data":"$GPRMC,031641.00,A,2238.64974824,S,11331.93198950,E,1.43,69.89,300319,0.4,E,A,S*68","timestamp":"2019-03-30T03:16:41.428Z"}
{"message":"linnaeus.furuno.sounder.eng","data":{"values":{"depth":"213.60"},"units":{"depth":"metres"}},"timestamp":"2019-03-30T03:16:41.504Z"}
{"message":"linnaeus.furuno.sounder.raw","data":"$SDDPT,0212.9,000.7*68","timestamp":"2019-03-30T03:16:41.504Z"}
{"message":"linnaeus.furuno.gps.eng","data":{"values":{"latitude":"-22.644158","longitude":"113.532205","utm_zone":"49","sog":"1.54","cog":"22.06"},"units":{"latitude":"decimal_degrees","longitude":"decimal_degrees","utm_zone":"number","sog":"knots","cog":"degrees"}},"timestamp":"2019-03-30T03:16:42.426Z"}
{"message":"linnaeus.furuno.gps.raw","data":"$GPRMC,031642.00,A,2238.64947452,S,11331.93231399,E,1.54,22.06,300319,0.4,E,A,S*67","timestamp":"2019-03-30T03:16:42.426Z"}
{"message":"linnaeus.furuno.gps.eng","data":{"values":{"latitude":"-22.644150","longitude":"113.532207","utm_zone":"49","sog":"1.57","cog":"1.98"},"units":{"latitude":"decimal_degrees","longitude":"decimal_degrees","utm_zone":"number","sog":"knots","cog":"degrees"}},"timestamp":"2019-03-30T03:16:43.425Z"}
{"message":"linnaeus.furuno.gps.raw","data":"$GPRMC,031643.00,A,2238.64900545,S,11331.93240037,E,1.57,1.98,300319,0.4,E,A,S*56","timestamp":"2019-03-30T03:16:43.425Z"}
{"message":"linnaeus.furuno.sounder.eng","data":{"values":{"depth":"214.50"},"units":{"depth":"metres"}},"timestamp":"2019-03-30T03:16:43.503Z"}
{"message":"linnaeus.furuno.sounder.raw","data":"$SDDPT,0213.8,000.7*68","timestamp":"2019-03-30T03:16:43.503Z"}
{"message":"linnaeus.furuno.gps.eng","data":{"values":{"latitude":"-22.644146","longitude":"113.532210","utm_zone":"49","sog":"1.36","cog":"85.70"},"units":{"latitude":"decimal_degrees","longitude":"decimal_degrees","utm_zone":"number","sog":"knots","cog":"degrees"}},"timestamp":"2019-03-30T03:16:44.425Z"}
{"message":"linnaeus.furuno.gps.raw","data":"$GPRMC,031644.00,A,2238.64875867,S,11331.93259526,E,1.36,85.70,300319,0.4,E,A,S*6F","timestamp":"2019-03-30T03:16:44.425Z"}
{"message":"linnaeus.furuno.gps.eng","data":{"values":{"latitude":"-22.644146","longitude":"113.532217","utm_zone":"49","sog":"0.89","cog":"76.15"},"units":{"latitude":"decimal_degrees","longitude":"decimal_degrees","utm_zone":"number","sog":"knots","cog":"degrees"}},"timestamp":"2019-03-30T03:16:45.426Z"}
{"message":"linnaeus.furuno.gps.raw","data":"$GPRMC,031645.00,A,2238.64876562,S,11331.93301473,E,0.89,76.15,300319,0.4,E,A,S*62","timestamp":"2019-03-30T03:16:45.426Z"}
{"message":"linnaeus.furuno.sounder.eng","data":{"values":{"depth":"214.50"},"units":{"depth":"metres"}},"timestamp":"2019-03-30T03:16:45.504Z"}
{"message":"linnaeus.furuno.sounder.raw","data":"$SDDPT,0213.8,000.7*68","timestamp":"2019-03-30T03:16:45.504Z"}
{"message":"linnaeus.furuno.gps.eng","data":{"values":{"latitude":"-22.644143","longitude":"113.532216","utm_zone":"49","sog":"1.38","cog":"314.78"},"units":{"latitude":"decimal_degrees","longitude":"decimal_degrees","utm_zone":"number","sog":"knots","cog":"degrees"}},"timestamp":"2019-03-30T03:16:46.433Z"}
{"message":"linnaeus.furuno.gps.raw","data":"$GPRMC,031646.00,A,2238.64857000,S,11331.93293981,E,1.38,314.78,300319,0.4,E,A,S*5E","timestamp":"2019-03-30T03:16:46.433Z"}
{"message":"linnaeus.furuno.gps.eng","data":{"values":{"latitude":"-22.644140","longitude":"113.532215","utm_zone":"49","sog":"1.01","cog":"73.28"},"units":{"latitude":"decimal_degrees","longitude":"decimal_degrees","utm_zone":"number","sog":"knots","cog":"degrees"}},"timestamp":"2019-03-30T03:16:47.426Z"}
{"message":"linnaeus.furuno.gps.raw","data":"$GPRMC,031647.00,A,2238.64842004,S,11331.93291227,E,1.01,73.28,300319,0.4,E,A,S*67","timestamp":"2019-03-30T03:16:47.426Z"}
{"message":"linnaeus.furuno.sounder.eng","data":{"values":{"depth":"214.10"},"units":{"depth":"metres"}},"timestamp":"2019-03-30T03:16:47.508Z"}
{"message":"linnaeus.furuno.sounder.raw","data":"$SDDPT,0213.4,000.7*64","timestamp":"2019-03-30T03:16:47.508Z"}
{"message":"linnaeus.furuno.gps.eng","data":{"values":{"latitude":"-22.644138","longitude":"113.532222","utm_zone":"49","sog":"1.62","cog":"59.75"},"units":{"latitude":"decimal_degrees","longitude":"decimal_degrees","utm_zone":"number","sog":"knots","cog":"degrees"}},"timestamp":"2019-03-30T03:16:48.429Z"}
{"message":"linnaeus.furuno.gps.raw","data":"$GPRMC,031648.00,A,2238.64829749,S,11331.93330954,E,1.62,59.75,300319,0.4,E,A,S*6B","timestamp":"2019-03-30T03:16:48.429Z"}
{"message":"linnaeus.furuno.gps.eng","data":{"values":{"latitude":"-22.644133","longitude":"113.532227","utm_zone":"49","sog":"1.46","cog":"23.60"},"units":{"latitude":"decimal_degrees","longitude":"decimal_degrees","utm_zone":"number","sog":"knots","cog":"degrees"}},"timestamp":"2019-03-30T03:16:49.427Z"}
{"message":"linnaeus.furuno.gps.raw","data":"$GPRMC,031649.00,A,2238.64798404,S,11331.93360895,E,1.46,23.60,300319,0.4,E,A,S*63","timestamp":"2019-03-30T03:16:49.427Z"}
{"message":"linnaeus.furuno.sounder.eng","data":{"values":{"depth":"214.30"},"units":{"depth":"metres"}},"timestamp":"2019-03-30T03:16:49.504Z"}
{"message":"linnaeus.furuno.sounder.raw","data":"$SDDPT,0213.6,000.7*66","timestamp":"2019-03-30T03:16:49.504Z"}
{"message":"linnaeus.furuno.gps.eng","data":{"values":{"latitude":"-22.644127","longitude":"113.532229","utm_zone":"49","sog":"1.19","cog":"2.42"},"units":{"latitude":"decimal_degrees","longitude":"decimal_degrees","utm_zone":"number","sog":"knots","cog":"degrees"}},"timestamp":"2019-03-30T03:16:50.425Z"}
{"message":"linnaeus.furuno.gps.raw","data":"$GPRMC,031650.00,A,2238.64761339,S,11331.93372037,E,1.19,2.42,300319,0.4,E,A,S*5E","timestamp":"2019-03-30T03:16:50.425Z"}
{"message":"linnaeus.furuno.gps.eng","data":{"values":{"latitude":"-22.644123","longitude":"113.532230","utm_zone":"49","sog":"0.81","cog":"67.16"},"units":{"latitude":"decimal_degrees","longitude":"decimal_degrees","utm_zone":"number","sog":"knots","cog":"degrees"}},"timestamp":"2019-03-30T03:16:51.425Z"}
{"message":"linnaeus.furuno.gps.raw","data":"$GPRMC,031651.00,A,2238.64739461,S,11331.93381220,E,0.81,67.16,300319,0.4,E,A,S*62","timestamp":"2019-03-30T03:16:51.425Z"}
{"message":"linnaeus.furuno.sounder.eng","data":{"values":{"depth":"214.30"},"units":{"depth":"metres"}},"timestamp":"2019-03-30T03:16:51.504Z"}
{"message":"linnaeus.furuno.sounder.raw","data":"$SDDPT,0213.6,000.7*66","timestamp":"2019-03-30T03:16:51.504Z"}
{"message":"linnaeus.furuno.gps.eng","data":{"values":{"latitude":"-22.644123","longitude":"113.532235","utm_zone":"49","sog":"0.68","cog":"64.46"},"units":{"latitude":"decimal_degrees","longitude":"decimal_degrees","utm_zone":"number","sog":"knots","cog":"degrees"}},"timestamp":"2019-03-30T03:16:52.428Z"}
{"message":"linnaeus.furuno.gps.raw","data":"$GPRMC,031652.00,A,2238.64735147,S,11331.93409739,E,0.68,64.46,300319,0.4,E,A,S*67","timestamp":"2019-03-30T03:16:52.428Z"}
{"message":"linnaeus.furuno.gps.eng","data":{"values":{"latitude":"-22.644120","longitude":"113.532235","utm_zone":"49","sog":"0.85","cog":"338.15"},"units":{"latitude":"decimal_degrees","longitude":"decimal_degrees","utm_zone":"number","sog":"knots","cog":"degrees"}},"timestamp":"2019-03-30T03:16:53.430Z"}
{"message":"linnaeus.furuno.gps.raw","data":"$GPRMC,031653.00,A,2238.64717795,S,11331.93411866,E,0.85,338.15,300319,0.4,E,A,S*5C","timestamp":"2019-03-30T03:16:53.430Z"}
{"message":"linnaeus.furuno.sounder.eng","data":{"values":{"depth":"213.80"},"units":{"depth":"metres"}},"timestamp":"2019-03-30T03:16:53.505Z"}
{"message":"linnaeus.furuno.sounder.raw","data":"$SDDPT,0213.1,000.7*61","timestamp":"2019-03-30T03:16:53.505Z"}
{"message":"linnaeus.furuno.gps.eng","data":{"values":{"latitude":"-22.644116","longitude":"113.532235","utm_zone":"49","sog":"0.76","cog":"42.62"},"units":{"latitude":"decimal_degrees","longitude":"decimal_degrees","utm_zone":"number","sog":"knots","cog":"degrees"}},"timestamp":"2019-03-30T03:16:54.426Z"}
{"message":"linnaeus.furuno.gps.raw","data":"$GPRMC,031654.00,A,2238.64697293,S,11331.93409692,E,0.76,42.62,300319,0.4,E,A,S*6F","timestamp":"2019-03-30T03:16:54.426Z"}
{"message":"linnaeus.furuno.gps.eng","data":{"values":{"latitude":"-22.644113","longitude":"113.532240","utm_zone":"49","sog":"1.46","cog":"50.73"},"units":{"latitude":"decimal_degrees","longitude":"decimal_degrees","utm_zone":"number","sog":"knots","cog":"degrees"}},"timestamp":"2019-03-30T03:16:55.430Z"}
{"message":"linnaeus.furuno.gps.raw","data":"$GPRMC,031655.00,A,2238.64679144,S,11331.93440535,E,1.46,50.73,300319,0.4,E,A,S*65","timestamp":"2019-03-30T03:16:55.430Z"}
{"message":"linnaeus.furuno.sounder.eng","data":{"values":{"depth":"213.90"},"units":{"depth":"metres"}},"timestamp":"2019-03-30T03:16:55.510Z"}
{"message":"linnaeus.furuno.sounder.raw","data":"$SDDPT,0213.2,000.7*62","timestamp":"2019-03-30T03:16:55.510Z"}
{"message":"linnaeus.furuno.gps.eng","data":{"values":{"latitude":"-22.644107","longitude":"113.532243","utm_zone":"49","sog":"1.43","cog":"358.19"},"units":{"latitude":"decimal_degrees","longitude":"decimal_degrees","utm_zone":"number","sog":"knots","cog":"degrees"}},"timestamp":"2019-03-30T03:16:56.427Z"}
{"message":"linnaeus.furuno.gps.raw","data":"$GPRMC,031656.00,A,2238.64643535,S,11331.93457439,E,1.43,358.19,300319,0.4,E,A,S*54","timestamp":"2019-03-30T03:16:56.427Z"}
{"message":"linnaeus.furuno.gps.eng","data":{"values":{"latitude":"-22.644101","longitude":"113.532243","utm_zone":"49","sog":"1.13","cog":"26.16"},"units":{"latitude":"decimal_degrees","longitude":"decimal_degrees","utm_zone":"number","sog":"knots","cog":"degrees"}},"timestamp":"2019-03-30T03:16:57.426Z"}
{"message":"linnaeus.furuno.gps.raw","data":"$GPRMC,031657.00,A,2238.64608852,S,11331.93459751,E,1.13,26.16,300319,0.4,E,A,S*65","timestamp":"2019-03-30T03:16:57.426Z"}
{"message":"linnaeus.furuno.sounder.eng","data":{"values":{"depth":"214.00"},"units":{"depth":"metres"}},"timestamp":"2019-03-30T03:16:57.506Z"}
{"message":"linnaeus.furuno.sounder.raw","data":"$SDDPT,0213.3,000.7*63","timestamp":"2019-03-30T03:16:57.506Z"}
{"message":"linnaeus.furuno.gps.eng","data":{"values":{"latitude":"-22.644098","longitude":"113.532248","utm_zone":"49","sog":"1.33","cog":"67.23"},"units":{"latitude":"decimal_degrees","longitude":"decimal_degrees","utm_zone":"number","sog":"knots","cog":"degrees"}},"timestamp":"2019-03-30T03:16:58.432Z"}
{"message":"linnaeus.furuno.gps.raw","data":"$GPRMC,031658.00,A,2238.64588626,S,11331.93488882,E,1.33,67.23,300319,0.4,E,A,S*60","timestamp":"2019-03-30T03:16:58.432Z"}
{"message":"linnaeus.furuno.gps.eng","data":{"values":{"latitude":"-22.644096","longitude":"113.532254","utm_zone":"49","sog":"0.98","cog":"52.22"},"units":{"latitude":"decimal_degrees","longitude":"decimal_degrees","utm_zone":"number","sog":"knots","cog":"degrees"}},"timestamp":"2019-03-30T03:16:59.431Z"}
{"message":"linnaeus.furuno.gps.raw","data":"$GPRMC,031659.00,A,2238.64575414,S,11331.93522385,E,0.98,52.22,300319,0.4,E,A,S*6A","timestamp":"2019-03-30T03:16:59.431Z"}
{"message":"linnaeus.furuno.sounder.eng","data":{"values":{"depth":"214.00"},"units":{"depth":"metres"}},"timestamp":"2019-03-30T03:16:59.507Z"}
{"message":"linnaeus.furuno.sounder.raw","data":"$SDDPT,0213.3,000.7*63","timestamp":"2019-03-30T03:16:59.507Z"}
{"message":"linnaeus.furuno.gps.eng","data":{"values":{"latitude":"-22.644092","longitude":"113.532256","utm_zone":"49","sog":"1.08","cog":"8.75"},"units":{"latitude":"decimal_degrees","longitude":"decimal_degrees","utm_zone":"number","sog":"knots","cog":"degrees"}},"timestamp":"2019-03-30T03:17:00.423Z"}
{"message":"linnaeus.furuno.gps.raw","data":"$GPRMC,031700.00,A,2238.64549629,S,11331.93536451,E,1.08,8.75,300319,0.4,E,A,S*5A","timestamp":"2019-03-30T03:17:00.423Z"}
{"message":"linnaeus.furuno.gps.eng","data":{"values":{"latitude":"-22.644087","longitude":"113.532258","utm_zone":"49","sog":"1.16","cog":"41.20"},"units":{"latitude":"decimal_degrees","longitude":"decimal_degrees","utm_zone":"number","sog":"knots","cog":"degrees"}},"timestamp":"2019-03-30T03:17:01.432Z"}
{"message":"linnaeus.furuno.gps.raw","data":"$GPRMC,031701.00,A,2238.64521816,S,11331.93547730,E,1.16,41.20,300319,0.4,E,A,S*67","timestamp":"2019-03-30T03:17:01.432Z"}
{"message":"linnaeus.furuno.sounder.eng","data":{"values":{"depth":"214.00"},"units":{"depth":"metres"}},"timestamp":"2019-03-30T03:17:01.507Z"}
{"message":"linnaeus.furuno.sounder.raw","data":"$SDDPT,0213.3,000.7*63","timestamp":"2019-03-30T03:17:01.507Z"}
{"message":"linnaeus.furuno.gps.eng","data":{"values":{"latitude":"-22.644082","longitude":"113.532263","utm_zone":"49","sog":"1.53","cog":"47.46"},"units":{"latitude":"decimal_degrees","longitude":"decimal_degrees","utm_zone":"number","sog":"knots","cog":"degrees"}},"timestamp":"2019-03-30T03:17:02.430Z"}
{"message":"linnaeus.furuno.gps.raw","data":"$GPRMC,031702.00,A,2238.64493923,S,11331.93578233,E,1.53,47.46,300319,0.4,E,A,S*66","timestamp":"2019-03-30T03:17:02.430Z"}
{"message":"linnaeus.furuno.gps.eng","data":{"values":{"latitude":"-22.644078","longitude":"113.532269","utm_zone":"49","sog":"1.35","cog":"44.11"},"units":{"latitude":"decimal_degrees","longitude":"decimal_degrees","utm_zone":"number","sog":"knots","cog":"degrees"}},"timestamp":"2019-03-30T03:17:03.425Z"}
{"message":"linnaeus.furuno.gps.raw","data":"$GPRMC,031703.00,A,2238.64466202,S,11331.93612059,E,1.35,44.11,300319,0.4,E,A,S*65","timestamp":"2019-03-30T03:17:03.425Z"}
{"message":"linnaeus.furuno.sounder.eng","data":{"values":{"depth":"214.30"},"units":{"depth":"metres"}},"timestamp":"2019-03-30T03:17:03.512Z"}
{"message":"linnaeus.furuno.sounder.raw","data":"$SDDPT,0213.6,000.7*66","timestamp":"2019-03-30T03:17:03.512Z"}
{"message":"linnaeus.furuno.gps.eng","data":{"values":{"latitude":"-22.644073","longitude":"113.532273","utm_zone":"49","sog":"1.40","cog":"15.60"},"units":{"latitude":"decimal_degrees","longitude":"decimal_degrees","utm_zone":"number","sog":"knots","cog":"degrees"}},"timestamp":"2019-03-30T03:17:04.431Z"}
{"message":"linnaeus.furuno.gps.raw","data":"$GPRMC,031704.00,A,2238.64435936,S,11331.93635620,E,1.40,15.60,300319,0.4,E,A,S*65","timestamp":"2019-03-30T03:17:04.431Z"}
{"message":"linnaeus.furuno.gps.eng","data":{"values":{"latitude":"-22.644065","longitude":"113.532273","utm_zone":"49","sog":"1.58","cog":"6.49"},"units":{"latitude":"decimal_degrees","longitude":"decimal_degrees","utm_zone":"number","sog":"knots","cog":"degrees"}},"timestamp":"2019-03-30T03:17:05.430Z"}
{"message":"linnaeus.furuno.gps.raw","data":"$GPRMC,031705.00,A,2238.64391272,S,11331.93638735,E,1.58,6.49,300319,0.4,E,A,S*5E","timestamp":"2019-03-30T03:17:05.430Z"}
{"message":"linnaeus.furuno.sounder.eng","data":{"values":{"depth":"214.30"},"units":{"depth":"metres"}},"timestamp":"2019-03-30T03:17:05.509Z"}
{"message":"linnaeus.furuno.sounder.raw","data":"$SDDPT,0213.6,000.7*66","timestamp":"2019-03-30T03:17:05.509Z"}
{"message":"linnaeus.furuno.gps.eng","data":{"values":{"latitude":"-22.644061","longitude":"113.532277","utm_zone":"49","sog":"1.31","cog":"80.23"},"units":{"latitude":"decimal_degrees","longitude":"decimal_degrees","utm_zone":"number","sog":"knots","cog":"degrees"}},"timestamp":"2019-03-30T03:17:06.425Z"}
{"message":"linnaeus.furuno.gps.raw","data":"$GPRMC,031706.00,A,2238.64366035,S,11331.93662930,E,1.31,80.23,300319,0.4,E,A,S*6D","timestamp":"2019-03-30T03:17:06.425Z"}
{"message":"linnaeus.furuno.gps.eng","data":{"values":{"latitude":"-22.644060","longitude":"113.532283","utm_zone":"49","sog":"0.61","cog":"45.16"},"units":{"latitude":"decimal_degrees","longitude":"decimal_degrees","utm_zone":"number","sog":"knots","cog":"degrees"}},"timestamp":"2019-03-30T03:17:07.432Z"}
{"message":"linnaeus.furuno.gps.raw","data":"$GPRMC,031707.00,A,2238.64361586,S,11331.93695729,E,0.61,45.16,300319,0.4,E,A,S*63","timestamp":"2019-03-30T03:17:07.432Z"}
{"message":"linnaeus.furuno.sounder.eng","data":{"values":{"depth":"214.10"},"units":{"depth":"metres"}},"timestamp":"2019-03-30T03:17:07.509Z"}
{"message":"linnaeus.furuno.sounder.raw","data":"$SDDPT,0213.4,000.7*64","timestamp":"2019-03-30T03:17:07.509Z"}
{"message":"linnaeus.furuno.gps.eng","data":{"values":{"latitude":"-22.644056","longitude":"113.532282","utm_zone":"49","sog":"1.01","cog":"343.14"},"units":{"latitude":"decimal_degrees","longitude":"decimal_degrees","utm_zone":"number","sog":"knots","cog":"degrees"}},"timestamp":"2019-03-30T03:17:08.430Z"}
{"message":"linnaeus.furuno.gps.raw","data":"$GPRMC,031708.00,A,2238.64338441,S,11331.93690841,E,1.01,343.14,300319,0.4,E,A,S*5E","timestamp":"2019-03-30T03:17:08.430Z"}
{"message":"linnaeus.furuno.gps.eng","data":{"values":{"latitude":"-22.644053","longitude":"113.532282","utm_zone":"49","sog":"0.73","cog":"50.04"},"units":{"latitude":"decimal_degrees","longitude":"decimal_degrees","utm_zone":"number","sog":"knots","cog":"degrees"}},"timestamp":"2019-03-30T03:17:09.425Z"}
{"message":"linnaeus.furuno.gps.raw","data":"$GPRMC,031709.00,A,2238.64319278,S,11331.93692863,E,0.73,50.04,300319,0.4,E,A,S*66","timestamp":"2019-03-30T03:17:09.425Z"}
{"message":"linnaeus.furuno.sounder.eng","data":{"values":{"depth":"213.80"},"units":{"depth":"metres"}},"timestamp":"2019-03-30T03:17:09.510Z"}
{"message":"linnaeus.furuno.sounder.raw","data":"$SDDPT,0213.1,000.7*61","timestamp":"2019-03-30T03:17:09.510Z"}
{"message":"linnaeus.furuno.gps.eng","data":{"values":{"latitude":"-22.644050","longitude":"113.532287","utm_zone":"49","sog":"1.54","cog":"56.12"},"units":{"latitude":"decimal_degrees","longitude":"decimal_degrees","utm_zone":"number","sog":"knots","cog":"degrees"}},"timestamp":"2019-03-30T03:17:10.428Z"}
{"message":"linnaeus.furuno.gps.raw","data":"$GPRMC,031710.00,A,2238.64302968,S,11331.93723388,E,1.54,56.12,300319,0.4,E,A,S*6E","timestamp":"2019-03-30T03:17:10.428Z"}
{"message":"linnaeus.furuno.gps.eng","data":{"values":{"latitude":"-22.644045","longitude":"113.532293","utm_zone":"49","sog":"1.82","cog":"30.57"},"units":{"latitude":"decimal_degrees","longitude":"decimal_degrees","utm_zone":"number","sog":"knots","cog":"degrees"}},"timestamp":"2019-03-30T03:17:11.426Z"}
{"message":"linnaeus.furuno.gps.raw","data":"$GPRMC,031711.00,A,2238.64267624,S,11331.93756466,E,1.82,30.57,300319,0.4,E,A,S*65","timestamp":"2019-03-30T03:17:11.426Z"}
{"message":"linnaeus.furuno.sounder.eng","data":{"values":{"depth":"213.80"},"units":{"depth":"metres"}},"timestamp":"2019-03-30T03:17:11.509Z"}
{"message":"linnaeus.furuno.sounder.raw","data":"$SDDPT,0213.1,000.7*61","timestamp":"2019-03-30T03:17:11.509Z"}
{"message":"linnaeus.furuno.gps.eng","data":{"values":{"latitude":"-22.644036","longitude":"113.532297","utm_zone":"49","sog":"1.88","cog":"23.14"},"units":{"latitude":"decimal_degrees","longitude":"decimal_degrees","utm_zone":"number","sog":"knots","cog":"degrees"}},"timestamp":"2019-03-30T03:17:12.426Z"}
{"message":"linnaeus.furuno.gps.raw","data":"$GPRMC,031712.00,A,2238.64218907,S,11331.93779817,E,1.88,23.14,300319,0.4,E,A,S*68","timestamp":"2019-03-30T03:17:12.426Z"}
{"message":"linnaeus.furuno.gps.eng","data":{"values":{"latitude":"-22.644030","longitude":"113.532302","utm_zone":"49","sog":"1.94","cog":"57.65"},"units":{"latitude":"decimal_degrees","longitude":"decimal_degrees","utm_zone":"number","sog":"knots","cog":"degrees"}},"timestamp":"2019-03-30T03:17:13.425Z"}
{"message":"linnaeus.furuno.gps.raw","data":"$GPRMC,031713.00,A,2238.64177914,S,11331.93814131,E,1.94,57.65,300319,0.4,E,A,S*60","timestamp":"2019-03-30T03:17:13.425Z"}
{"message":"linnaeus.furuno.sounder.eng","data":{"values":{"depth":"214.20"},"units":{"depth":"metres"}},"timestamp":"2019-03-30T03:17:13.513Z"}
{"message":"linnaeus.furuno.sounder.raw","data":"$SDDPT,0213.5,000.7*65","timestamp":"2019-03-30T03:17:13.513Z"}
{"message":"linnaeus.furuno.gps.eng","data":{"values":{"latitude":"-22.644025","longitude":"113.532309","utm_zone":"49","sog":"1.31","cog":"30.02"},"units":{"latitude":"decimal_degrees","longitude":"decimal_degrees","utm_zone":"number","sog":"knots","cog":"degrees"}},"timestamp":"2019-03-30T03:17:14.425Z"}
{"message":"linnaeus.furuno.gps.raw","data":"$GPRMC,031714.00,A,2238.64151441,S,11331.93853227,E,1.31,30.02,300319,0.4,E,A,S*66","timestamp":"2019-03-30T03:17:14.425Z"}
{"message":"linnaeus.furuno.gps.eng","data":{"values":{"latitude":"-22.644019","longitude":"113.532311","utm_zone":"49","sog":"1.35","cog":"27.56"},"units":{"latitude":"decimal_degrees","longitude":"decimal_degrees","utm_zone":"number","sog":"knots","cog":"degrees"}},"timestamp":"2019-03-30T03:17:15.426Z"}
{"message":"linnaeus.furuno.gps.raw","data":"$GPRMC,031715.00,A,2238.64116530,S,11331.93866009,E,1.35,27.56,300319,0.4,E,A,S*68","timestamp":"2019-03-30T03:17:15.426Z"}
{"message":"linnaeus.furuno.sounder.eng","data":{"values":{"depth":"214.30"},"units":{"depth":"metres"}},"timestamp":"2019-03-30T03:17:15.511Z"}
{"message":"linnaeus.furuno.sounder.raw","data":"$SDDPT,0213.6,000.7*66","timestamp":"2019-03-30T03:17:15.511Z"}
{"message":"linnaeus.furuno.gps.eng","data":{"values":{"latitude":"-22.644015","longitude":"113.532315","utm_zone":"49","sog":"1.25","cog":"58.29"},"units":{"latitude":"decimal_degrees","longitude":"decimal_degrees","utm_zone":"number","sog":"knots","cog":"degrees"}},"timestamp":"2019-03-30T03:17:16.427Z"}
{"message":"linnaeus.furuno.gps.raw","data":"$GPRMC,031716.00,A,2238.64090423,S,11331.93891717,E,1.25,58.29,300319,0.4,E,A,S*66","timestamp":"2019-03-30T03:17:16.427Z"}
{"message":"linnaeus.furuno.gps.eng","data":{"values":{"latitude":"-22.644013","longitude":"113.532320","utm_zone":"49","sog":"1.02","cog":"51.10"},"units":{"latitude":"decimal_degrees","longitude":"decimal_degrees","utm_zone":"number","sog":"knots","cog":"degrees"}},"timestamp":"2019-03-30T03:17:17.429Z"}
{"message":"linnaeus.furuno.gps.raw","data":"$GPRMC,031717.00,A,2238.64075028,S,11331.93921492,E,1.02,51.10,300319,0.4,E,A,S*61","timestamp":"2019-03-30T03:17:17.429Z"}
{"message":"linnaeus.furuno.sounder.eng","data":{"values":{"depth":"214.10"},"units":{"depth":"metres"}},"timestamp":"2019-03-30T03:17:17.511Z"}
{"message":"linnaeus.furuno.sounder.raw","data":"$SDDPT,0213.4,000.7*64","timestamp":"2019-03-30T03:17:17.511Z"}
{"message":"linnaeus.furuno.gps.eng","data":{"values":{"latitude":"-22.644008","longitude":"113.532322","utm_zone":"49","sog":"1.25","cog":"11.51"},"units":{"latitude":"decimal_degrees","longitude":"decimal_degrees","utm_zone":"number","sog":"knots","cog":"degrees"}},"timestamp":"2019-03-30T03:17:18.426Z"}
{"message":"linnaeus.furuno.gps.raw","data":"$GPRMC,031718.00,A,2238.64046922,S,11331.93933771,E,1.25,11.51,300319,0.4,E,A,S*64","timestamp":"2019-03-30T03:17:18.426Z"}
{"message":"linnaeus.furuno.gps.eng","data":{"values":{"latitude":"-22.644003","longitude":"113.532325","utm_zone":"49","sog":"1.26","cog":"50.70"},"units":{"latitude":"decimal_degrees","longitude":"decimal_degrees","utm_zone":"number","sog":"knots","cog":"degrees"}},"timestamp":"2019-03-30T03:17:19.432Z"}
{"message":"linnaeus.furuno.gps.raw","data":"$GPRMC,031719.00,A,2238.64017049,S,11331.93951922,E,1.26,50.70,300319,0.4,E,A,S*6C","timestamp":"2019-03-30T03:17:19.432Z"}
{"message":"linnaeus.furuno.sounder.eng","data":{"values":{"depth":"214.00"},"units":{"depth":"metres"}},"timestamp":"2019-03-30T03:17:19.512Z"}
{"message":"linnaeus.furuno.sounder.raw","data":"$SDDPT,0213.3,000.7*63","timestamp":"2019-03-30T03:17:19.512Z"}
{"message":"linnaeus.furuno.gps.eng","data":{"values":{"latitude":"-22.644000","longitude":"113.532330","utm_zone":"49","sog":"0.98","cog":"45.88"},"units":{"latitude":"decimal_degrees","longitude":"decimal_degrees","utm_zone":"number","sog":"knots","cog":"degrees"}},"timestamp":"2019-03-30T03:17:20.430Z"}
{"message":"linnaeus.furuno.gps.raw","data":"$GPRMC,031720.00,A,2238.63997542,S,11331.93979243,E,0.98,45.88,300319,0.4,E,A,S*6F","timestamp":"2019-03-30T03:17:20.430Z"}
{"message":"linnaeus.furuno.gps.eng","data":{"values":{"latitude":"-22.643997","longitude":"113.532333","utm_zone":"49","sog":"0.97","cog":"41.64"},"units":{"latitude":"decimal_degrees","longitude":"decimal_degrees","utm_zone":"number","sog":"knots","cog":"degrees"}},"timestamp":"2019-03-30T03:17:21.427Z"}
{"message":"linnaeus.furuno.gps.raw","data":"$GPRMC,031721.00,A,2238.63980132,S,11331.93998867,E,0.97,41.64,300319,0.4,E,A,S*61","timestamp":"2019-03-30T03:17:21.427Z"}
{"message":"linnaeus.furuno.sounder.eng","data":{"values":{"depth":"213.70"},"units":{"depth":"metres"}},"timestamp":"2019-03-30T03:17:21.512Z"}
{"message":"linnaeus.furuno.sounder.raw","data":"$SDDPT,0213.0,000.7*60","timestamp":"2019-03-30T03:17:21.512Z"}
{"message":"linnaeus.furuno.gps.eng","data":{"values":{"latitude":"-22.643992","longitude":"113.532335","utm_zone":"49","sog":"1.16","cog":"1.35"},"units":{"latitude":"decimal_degrees","longitude":"decimal_degrees","utm_zone":"number","sog":"knots","cog":"degrees"}},"timestamp":"2019-03-30T03:17:22.431Z"}
{"message":"linnaeus.furuno.gps.raw","data":"$GPRMC,031722.00,A,2238.63950592,S,11331.94009615,E,1.16,1.35,300319,0.4,E,A,S*54","timestamp":"2019-03-30T03:17:22.431Z"}
{"message":"linnaeus.furuno.gps.eng","data":{"values":{"latitude":"-22.643986","longitude":"113.532335","utm_zone":"49","sog":"1.22","cog":"15.83"},"units":{"latitude":"decimal_degrees","longitude":"decimal_degrees","utm_zone":"number","sog":"knots","cog":"degrees"}},"timestamp":"2019-03-30T03:17:23.425Z"}
{"message":"linnaeus.furuno.gps.raw","data":"$GPRMC,031723.00,A,2238.63917588,S,11331.94011448,E,1.22,15.83,300319,0.4,E,A,S*61","timestamp":"2019-03-30T03:17:23.425Z"}
{"message":"linnaeus.furuno.sounder.eng","data":{"values":{"depth":"213.70"},"units":{"depth":"metres"}},"timestamp":"2019-03-30T03:17:23.513Z"}
{"message":"linnaeus.furuno.sounder.raw","data":"$SDDPT,0213.0,000.7*60","timestamp":"2019-03-30T03:17:23.513Z"}
{"message":"linnaeus.furuno.gps.eng","data":{"values":{"latitude":"-22.643982","longitude":"113.532341","utm_zone":"49","sog":"1.90","cog":"71.57"},"units":{"latitude":"decimal_degrees","longitude":"decimal_degrees","utm_zone":"number","sog":"knots","cog":"degrees"}},"timestamp":"2019-03-30T03:17:24.430Z"}
{"message":"linnaeus.furuno.gps.raw","data":"$GPRMC,031724.00,A,2238.63891547,S,11331.94045224,E,1.90,71.57,300319,0.4,E,A,S*65","timestamp":"2019-03-30T03:17:24.430Z"}
{"message":"linnaeus.furuno.gps.eng","data":{"values":{"latitude":"-22.643978","longitude":"113.532349","utm_zone":"49","sog":"1.65","cog":"42.43"},"units":{"latitude":"decimal_degrees","longitude":"decimal_degrees","utm_zone":"number","sog":"knots","cog":"degrees"}},"timestamp":"2019-03-30T03:17:25.431Z"}
{"message":"linnaeus.furuno.gps.raw","data":"$GPRMC,031725.00,A,2238.63869856,S,11331.94096584,E,1.65,42.43,300319,0.4,E,A,S*62","timestamp":"2019-03-30T03:17:25.431Z"}
{"message":"linnaeus.furuno.sounder.eng","data":{"values":{"depth":"213.90"},"units":{"depth":"metres"}},"timestamp":"2019-03-30T03:17:25.514Z"}
{"message":"linnaeus.furuno.sounder.raw","data":"$SDDPT,0213.2,000.7*62","timestamp":"2019-03-30T03:17:25.514Z"}
{"message":"linnaeus.furuno.gps.eng","data":{"values":{"latitude":"-22.643971","longitude":"113.532352","utm_zone":"49","sog":"1.68","cog":"12.39"},"units":{"latitude":"decimal_degrees","longitude":"decimal_degrees","utm_zone":"number","sog":"knots","cog":"degrees"}},"timestamp":"2019-03-30T03:17:26.431Z"}
{"message":"linnaeus.furuno.gps.raw","data":"$GPRMC,031726.00,A,2238.63826508,S,11331.94113542,E,1.68,12.39,300319,0.4,E,A,S*6F","timestamp":"2019-03-30T03:17:26.431Z"}
{"message":"linnaeus.furuno.gps.eng","data":{"values":{"latitude":"-22.643965","longitude":"113.532355","utm_zone":"49","sog":"1.43","cog":"46.83"},"units":{"latitude":"decimal_degrees","longitude":"decimal_degrees","utm_zone":"number","sog":"knots","cog":"degrees"}},"timestamp":"2019-03-30T03:17:27.426Z"}
{"message":"linnaeus.furuno.gps.raw","data":"$GPRMC,031727.00,A,2238.63789738,S,11331.94131857,E,1.43,46.83,300319,0.4,E,A,S*65","timestamp":"2019-03-30T03:17:27.426Z"}
{"message":"linnaeus.furuno.sounder.eng","data":{"values":{"depth":"214.30"},"units":{"depth":"metres"}},"timestamp":"2019-03-30T03:17:27.514Z"}
{"message":"linnaeus.furuno.sounder.raw","data":"$SDDPT,0213.6,000.7*66","timestamp":"2019-03-30T03:17:27.514Z"}
{"message":"linnaeus.tappity.keystroke.eng","data":{"keytype":"substrate","keyname":"Silt (Sandy Mud)"},"timestamp":"2019-03-30T03:17:28.017Z"}
{"message":"linnaeus.tappity.keystroke.raw","data":{"keystroke":"2"},"}timestamp":"2019-03-30T03:17:28.017Z"}
{"message":"linnaeus.tappity.current_trio.eng","data":{"substrate":"Silt (Sandy Mud)","benthic":"Burrowing Animals","animal":""},"timestamp":"2019-03-30T03:17:28.017Z"}
{"message":"linnaeus.furuno.gps.eng","data":{"values":{"latitude":"-22.643961","longitude":"113.532362","utm_zone":"49","sog":"1.50","cog":"56.29"},"units":{"latitude":"decimal_degrees","longitude":"decimal_degrees","utm_zone":"number","sog":"knots","cog":"degrees"}},"timestamp":"2019-03-30T03:17:28.425Z"}
{"message":"linnaeus.furuno.gps.raw","data":"$GPRMC,031728.00,A,2238.63768823,S,11331.94172334,E,1.50,56.29,300319,0.4,E,A,S*6A","timestamp":"2019-03-30T03:17:28.425Z"}
{"message":"linnaeus.furuno.gps.eng","data":{"values":{"latitude":"-22.643956","longitude":"113.532365","utm_zone":"49","sog":"1.53","cog":"6.47"},"units":{"latitude":"decimal_degrees","longitude":"decimal_degrees","utm_zone":"number","sog":"knots","cog":"degrees"}},"timestamp":"2019-03-30T03:17:29.429Z"}
{"message":"linnaeus.furuno.gps.raw","data":"$GPRMC,031729.00,A,2238.63733434,S,11331.94189378,E,1.53,6.47,300319,0.4,E,A,S*5D","timestamp":"2019-03-30T03:17:29.429Z"}
{"message":"linnaeus.furuno.sounder.eng","data":{"values":{"depth":"214.20"},"units":{"depth":"metres"}},"timestamp":"2019-03-30T03:17:29.515Z"}
{"message":"linnaeus.furuno.sounder.raw","data":"$SDDPT,0213.5,000.7*65","timestamp":"2019-03-30T03:17:29.515Z"}
{"message":"linnaeus.furuno.gps.eng","data":{"values":{"latitude":"-22.643950","longitude":"113.532367","utm_zone":"49","sog":"1.25","cog":"43.41"},"units":{"latitude":"decimal_degrees","longitude":"decimal_degrees","utm_zone":"number","sog":"knots","cog":"degrees"}},"timestamp":"2019-03-30T03:17:30.425Z"}
{"message":"linnaeus.furuno.gps.raw","data":"$GPRMC,031730.00,A,2238.63697144,S,11331.94202700,E,1.25,43.41,300319,0.4,E,A,S*65","timestamp":"2019-03-30T03:17:30.425Z"}
{"message":"linnaeus.furuno.gps.eng","data":{"values":{"latitude":"-22.643947","longitude":"113.532372","utm_zone":"49","sog":"1.03","cog":"72.75"},"units":{"latitude":"decimal_degrees","longitude":"decimal_degrees","utm_zone":"number","sog":"knots","cog":"degrees"}},"timestamp":"2019-03-30T03:17:31.426Z"}
{"message":"linnaeus.furuno.gps.raw","data":"$GPRMC,031731.00,A,2238.63681435,S,11331.94234608,E,1.03,72.75,300319,0.4,E,A,S*6D","timestamp":"2019-03-30T03:17:31.426Z"}
{"message":"linnaeus.furuno.sounder.eng","data":{"values":{"depth":"214.00"},"units":{"depth":"metres"}},"timestamp":"2019-03-30T03:17:31.514Z"}
{"message":"linnaeus.furuno.sounder.raw","data":"$SDDPT,0213.3,000.7*63","timestamp":"2019-03-30T03:17:31.514Z"}
{"message":"linnaeus.furuno.gps.eng","data":{"values":{"latitude":"-22.643945","longitude":"113.532374","utm_zone":"49","sog":"0.76","cog":"355.75"},"units":{"latitude":"decimal_degrees","longitude":"decimal_degrees","utm_zone":"number","sog":"knots","cog":"degrees"}},"timestamp":"2019-03-30T03:17:32.427Z"}
{"message":"linnaeus.furuno.gps.raw","data":"$GPRMC,031732.00,A,2238.63667699,S,11331.94246927,E,0.76,355.75,300319,0.4,E,A,S*50","timestamp":"2019-03-30T03:17:32.427Z"}
{"message":"linnaeus.furuno.gps.eng","data":{"values":{"latitude":"-22.643941","longitude":"113.532374","utm_zone":"49","sog":"0.85","cog":"16.56"},"units":{"latitude":"decimal_degrees","longitude":"decimal_degrees","utm_zone":"number","sog":"knots","cog":"degrees"}},"timestamp":"2019-03-30T03:17:33.425Z"}
{"message":"linnaeus.furuno.gps.raw","data":"$GPRMC,031733.00,A,2238.63644508,S,11331.94246168,E,0.85,16.56,300319,0.4,E,A,S*61","timestamp":"2019-03-30T03:17:33.425Z"}
{"message":"linnaeus.furuno.sounder.eng","data":{"values":{"depth":"213.50"},"units":{"depth":"metres"}},"timestamp":"2019-03-30T03:17:33.516Z"}
{"message":"linnaeus.furuno.sounder.raw","data":"$SDDPT,0212.8,000.7*69","timestamp":"2019-03-30T03:17:33.516Z"}
{"message":"linnaeus.furuno.gps.eng","data":{"values":{"latitude":"-22.643937","longitude":"113.532377","utm_zone":"49","sog":"1.15","cog":"51.20"},"units":{"latitude":"decimal_degrees","longitude":"decimal_degrees","utm_zone":"number","sog":"knots","cog":"degrees"}},"timestamp":"2019-03-30T03:17:34.431Z"}
{"message":"linnaeus.furuno.gps.raw","data":"$GPRMC,031734.00,A,2238.63621519,S,11331.94260788,E,1.15,51.20,300319,0.4,E,A,S*63","timestamp":"2019-03-30T03:17:34.431Z"}
{"message":"linnaeus.furuno.gps.eng","data":{"values":{"latitude":"-22.643932","longitude":"113.532383","utm_zone":"49","sog":"1.77","cog":"40.01"},"units":{"latitude":"decimal_degrees","longitude":"decimal_degrees","utm_zone":"number","sog":"knots","cog":"degrees"}},"timestamp":"2019-03-30T03:17:35.429Z"}
{"message":"linnaeus.furuno.gps.raw","data":"$GPRMC,031735.00,A,2238.63593937,S,11331.94298096,E,1.77,40.01,300319,0.4,E,A,S*60","timestamp":"2019-03-30T03:17:35.429Z"}
{"message":"linnaeus.furuno.sounder.eng","data":{"values":{"depth":"213.80"},"units":{"depth":"metres"}},"timestamp":"2019-03-30T03:17:35.516Z"}
{"message":"linnaeus.furuno.sounder.raw","data":"$SDDPT,0213.1,000.7*61","timestamp":"2019-03-30T03:17:35.516Z"}
{"message":"linnaeus.furuno.gps.eng","data":{"values":{"latitude":"-22.643924","longitude":"113.532386","utm_zone":"49","sog":"2.03","cog":"11.31"},"units":{"latitude":"decimal_degrees","longitude":"decimal_degrees","utm_zone":"number","sog":"knots","cog":"degrees"}},"timestamp":"2019-03-30T03:17:36.425Z"}
{"message":"linnaeus.furuno.gps.raw","data":"$GPRMC,031736.00,A,2238.63543703,S,11331.94318167,E,2.03,11.31,300319,0.4,E,A,S*66","timestamp":"2019-03-30T03:17:36.425Z"}
{"message":"linnaeus.furuno.gps.eng","data":{"values":{"latitude":"-22.643917","longitude":"113.532391","utm_zone":"49","sog":"1.68","cog":"52.55"},"units":{"latitude":"decimal_degrees","longitude":"decimal_degrees","utm_zone":"number","sog":"knots","cog":"degrees"}},"timestamp":"2019-03-30T03:17:37.431Z"}
{"message":"linnaeus.furuno.gps.raw","data":"$GPRMC,031737.00,A,2238.63501252,S,11331.94343918,E,1.68,52.55,300319,0.4,E,A,S*65","timestamp":"2019-03-30T03:17:37.431Z"}
{"message":"linnaeus.furuno.sounder.eng","data":{"values":{"depth":"214.20"},"units":{"depth":"metres"}},"timestamp":"2019-03-30T03:17:37.522Z"}
{"message":"linnaeus.furuno.sounder.raw","data":"$SDDPT,0213.5,000.7*65","timestamp":"2019-03-30T03:17:37.522Z"}
{"message":"linnaeus.furuno.gps.eng","data":{"values":{"latitude":"-22.643912","longitude":"113.532398","utm_zone":"49","sog":"1.70","cog":"46.04"},"units":{"latitude":"decimal_degrees","longitude":"decimal_degrees","utm_zone":"number","sog":"knots","cog":"degrees"}},"timestamp":"2019-03-30T03:17:38.425Z"}
{"message":"linnaeus.furuno.gps.raw","data":"$GPRMC,031738.00,A,2238.63473969,S,11331.94387155,E,1.70,46.04,300319,0.4,E,A,S*6C","timestamp":"2019-03-30T03:17:38.425Z"}
{"message":"linnaeus.tappity.keystroke.eng","data":{"keytype":"animal","keyname":"Sea Pen"},"timestamp":"2019-03-30T03:17:39.263Z"}
{"message":"linnaeus.tappity.keystroke.raw","data":{"keystroke":"F12"},"timestamp":"2019-03-30T03:17:39.263Z"}
{"message":"linnaeus.tappity.current_trio.eng","data":{"substrate":"Silt (Sandy Mud)","benthic":"Burrowing Animals","animal":"Sea Pen"},"timestamp":"2019-03-30T03:17:39.263Z"}
{"message":"linnaeus.furuno.gps.eng","data":{"values":{"latitude":"-22.643907","longitude":"113.532401","utm_zone":"49","sog":"1.25","cog":"4.80"},"units":{"latitude":"decimal_degrees","longitude":"decimal_degrees","utm_zone":"number","sog":"knots","cog":"degrees"}},"timestamp":"2019-03-30T03:17:39.424Z"}
{"message":"linnaeus.furuno.gps.raw","data":"$GPRMC,031739.00,A,2238.63439691,S,11331.94407767,E,1.25,4.80,300319,0.4,E,A,S*59","timestamp":"2019-03-30T03:17:39.424Z"}
{"message":"linnaeus.furuno.sounder.eng","data":{"values":{"depth":"214.10"},"units":{"depth":"metres"}},"timestamp":"2019-03-30T03:17:39.517Z"}
{"message":"linnaeus.furuno.sounder.raw","data":"$SDDPT,0213.4,000.7*64","timestamp":"2019-03-30T03:17:39.517Z"}
{"message":"linnaeus.furuno.gps.eng","data":{"values":{"latitude":"-22.643901","longitude":"113.532401","utm_zone":"49","sog":"0.84","cog":"16.33"},"units":{"latitude":"decimal_degrees","longitude":"decimal_degrees","utm_zone":"number","sog":"knots","cog":"degrees"}},"timestamp":"2019-03-30T03:17:40.429Z"}
{"message":"linnaeus.furuno.gps.raw","data":"$GPRMC,031740.00,A,2238.63407428,S,11331.94404636,E,0.84,16.33,300319,0.4,E,A,S*6D","timestamp":"2019-03-30T03:17:40.429Z"}
{"message":"linnaeus.furuno.gps.eng","data":{"values":{"latitude":"-22.643899","longitude":"113.532407","utm_zone":"49","sog":"1.85","cog":"79.75"},"units":{"latitude":"decimal_degrees","longitude":"decimal_degrees","utm_zone":"number","sog":"knots","cog":"degrees"}},"timestamp":"2019-03-30T03:17:41.426Z"}
{"message":"linnaeus.furuno.gps.raw","data":"$GPRMC,031741.00,A,2238.63395271,S,11331.94443283,E,1.85,79.75,300319,0.4,E,A,S*68","timestamp":"2019-03-30T03:17:41.426Z"}
{"message":"linnaeus.furuno.sounder.eng","data":{"values":{"depth":"214.00"},"units":{"depth":"metres"}},"timestamp":"2019-03-30T03:17:41.517Z"}
{"message":"linnaeus.furuno.sounder.raw","data":"$SDDPT,0213.3,000.7*63","timestamp":"2019-03-30T03:17:41.517Z"}
{"message":"linnaeus.furuno.gps.eng","data":{"values":{"latitude":"-22.643896","longitude":"113.532411","utm_zone":"49","sog":"1.36","cog":"354.48"},"units":{"latitude":"decimal_degrees","longitude":"decimal_degrees","utm_zone":"number","sog":"knots","cog":"degrees"}},"timestamp":"2019-03-30T03:17:42.432Z"}
{"message":"linnaeus.furuno.gps.raw","data":"$GPRMC,031742.00,A,2238.63373864,S,11331.94468231,E,1.36,354.48,300319,0.4,E,A,S*57","timestamp":"2019-03-30T03:17:42.432Z"}
{"message":"linnaeus.furuno.gps.eng","data":{"values":{"latitude":"-22.643889","longitude":"113.532410","utm_zone":"49","sog":"1.13","cog":"2.17"},"units":{"latitude":"decimal_degrees","longitude":"decimal_degrees","utm_zone":"number","sog":"knots","cog":"degrees"}},"timestamp":"2019-03-30T03:17:43.426Z"}
{"message":"linnaeus.furuno.gps.raw","data":"$GPRMC,031743.00,A,2238.63335437,S,11331.94460112,E,1.13,2.17,300319,0.4,E,A,S*59","timestamp":"2019-03-30T03:17:43.426Z"}
{"message":"linnaeus.furuno.sounder.eng","data":{"values":{"depth":"213.80"},"units":{"depth":"metres"}},"timestamp":"2019-03-30T03:17:43.517Z"}
{"message":"linnaeus.furuno.sounder.raw","data":"$SDDPT,0213.1,000.7*61","timestamp":"2019-03-30T03:17:43.517Z"}
{"message":"linnaeus.tappity.keystroke.eng","data":{"keytype":"animal","keyname":"Non Commercial Fish"},"timestamp":"2019-03-30T03:17:43.682Z"}
{"message":"linnaeus.tappity.keystroke.raw","data":{"keystroke":"Delete"},"timestamp":"2019-03-30T03:17:43.682Z"}
{"message":"linnaeus.tappity.current_trio.eng","data":{"substrate":"Silt (Sandy Mud)","benthic":"Burrowing Animals","animal":"Non Commercial Fish"},"timestamp":"2019-03-30T03:17:43.682Z"}
{"message":"linnaeus.furuno.gps.eng","data":{"values":{"latitude":"-22.643885","longitude":"113.532414","utm_zone":"49","sog":"1.65","cog":"60.36"},"units":{"latitude":"decimal_degrees","longitude":"decimal_degrees","utm_zone":"number","sog":"knots","cog":"degrees"}},"timestamp":"2019-03-30T03:17:44.429Z"}
{"message":"linnaeus.furuno.gps.raw","data":"$GPRMC,031744.00,A,2238.63308700,S,11331.94482713,E,1.65,60.36,300319,0.4,E,A,S*6A","timestamp":"2019-03-30T03:17:44.429Z"}
{"message":"linnaeus.furuno.gps.eng","data":{"values":{"latitude":"-22.643880","longitude":"113.532421","utm_zone":"49","sog":"1.67","cog":"30.26"},"units":{"latitude":"decimal_degrees","longitude":"decimal_degrees","utm_zone":"number","sog":"knots","cog":"degrees"}},"timestamp":"2019-03-30T03:17:45.429Z"}
{"message":"linnaeus.furuno.gps.raw","data":"$GPRMC,031745.00,A,2238.63277437,S,11331.94523035,E,1.67,30.26,300319,0.4,E,A,S*6A","timestamp":"2019-03-30T03:17:45.429Z"}
{"message":"linnaeus.furuno.sounder.eng","data":{"values":{"depth":"213.90"},"units":{"depth":"metres"}},"timestamp":"2019-03-30T03:17:45.519Z"}
{"message":"linnaeus.furuno.sounder.raw","data":"$SDDPT,0213.2,000.7*62","timestamp":"2019-03-30T03:17:45.519Z"}
